[
  {
    "name": "Mr Gatti's Pizza",
    "address": "717 N Bell Blvd, Cedar Park, TX 78613, United States",
    "lat": 30.5183204,
    "lng": -97.82902969999999
  },
  {
    "name": "Mr Gatti's Pizza",
    "address": "2021 N Mays St #100, Round Rock, TX 78664, United States",
    "lat": 30.5304554,
    "lng": -97.6885408
  },
  {
    "name": "Mr Gatti's Pizza",
    "address": "3010 Williams Dr, Georgetown, TX 78626, United States",
    "lat": 30.663265,
    "lng": -97.694043
  },
  {
    "name": "Gattitown",
    "address": "1150 N Interstate Hwy 35, Round Rock, TX 78681, United States",
    "lat": 30.5180756,
    "lng": -97.69043789999999
  },
  {
    "name": "Mr Gatti's Pizza",
    "address": "20900 RM 1431 #120, Lago Vista, TX 78645, United States",
    "lat": 30.4816645,
    "lng": -97.97565069999999
  },
  {
    "name": "Mr Gatti's Pizza",
    "address": "326 Ed Schmidt Blvd Ste 110, Hutto, TX 78634, United States",
    "lat": 30.5444911,
    "lng": -97.56090890000002
  },
  {
    "name": "Mr Gatti's Pizza",
    "address": "1615 Grand Ave Pkwy, Pflugerville, TX 78660, United States",
    "lat": 30.4556989,
    "lng": -97.65894399999999
  },
  {
    "name": "Mr Gatti's Pizza",
    "address": "12129 Ranch Rd 620 N #100, Austin, TX 78750, United States",
    "lat": 30.4615937,
    "lng": -97.8162885
  },
  {
    "name": "Mr Gatti's Pizza",
    "address": "3720 Far W Blvd Suite 114, Austin, TX 78731, United States",
    "lat": 30.3558692,
    "lng": -97.7573851
  },
  {
    "name": "Mr Gatti's Pizza",
    "address": "2121 W Parmer Ln, Austin, TX 78727, United States",
    "lat": 30.4154594,
    "lng": -97.6970044
  },
  {
    "name": "Mr Gatti's Pizza",
    "address": "3810 Gattis School Rd, Round Rock, TX 78664, United States",
    "lat": 30.497545,
    "lng": -97.61176189999999
  },
  {
    "name": "Mr Gatti's Pizza",
    "address": "2708 N Main St, Taylor, TX 76574, United States",
    "lat": 30.5915307,
    "lng": -97.4120634
  },
  {
    "name": "Mr Gatti's Pizza",
    "address": "2121 TX-16, Graham, TX 76450, United States",
    "lat": 33.0822174,
    "lng": -98.5806856
  },
  {
    "name": "Mr Gatti's Pizza",
    "address": "2102 S 31st St, Temple, TX 76504, United States",
    "lat": 31.0800846,
    "lng": -97.3658279
  },
  {
    "name": "Mr Gatti's Pizza",
    "address": "2497 E Central Texas Expy, Killeen, TX 76543, United States",
    "lat": 31.0892796,
    "lng": -97.7121581
  },
  {
    "name": "Mr Gatti's Pizza",
    "address": "801 E William Cannon Dr, Austin, TX 78745, United States",
    "lat": 30.1900722,
    "lng": -97.7719003
  },
  {
    "name": "Mr Gatti's Pizza",
    "address": "7525 E Hwy 290, Austin, TX 78723, United States",
    "lat": 30.32391609999999,
    "lng": -97.6752394
  },
  {
    "name": "Gattitown",
    "address": "9900 S I-35 Frontage Rd, Austin, TX 78748, United States",
    "lat": 30.1567633,
    "lng": -97.7927907
  },
  {
    "name": "Mr Gatti's Pizza",
    "address": "2765 W Washington St, Stephenville, TX 76401, United States",
    "lat": 32.2073958,
    "lng": -98.23778709999999
  },
  {
    "name": "Mr Gatti's Pizza",
    "address": "1504 Aquarena Springs Dr, San Marcos, TX 78666, United States",
    "lat": 29.8922569,
    "lng": -97.9191147
  },
  {
    "name": "Mr Gatti's Pizza",
    "address": "3501 RM 1431, Kingsland, TX 78639, United States",
    "lat": 30.6743402,
    "lng": -98.4573884
  },
  {
    "name": "Mr Gatti's Pizza",
    "address": "22510 I-35, Kyle, TX 78640, United States",
    "lat": 29.98971239999999,
    "lng": -97.8733701
  },
  {
    "name": "Mr Gatti's Pizza",
    "address": "12110 Menchaca Rd, Austin, TX 78748, United States",
    "lat": 30.1426396,
    "lng": -97.83365959999999
  },
  {
    "name": "Mr Gatti's Pizza",
    "address": "1820 Coit Rd #110, Plano, TX 75075, United States",
    "lat": 33.026306,
    "lng": -96.7685025
  },
  {
    "name": "Mr Gatti's Pizza",
    "address": "5201 Bosque Blvd #280, Waco, TX 76710, United States",
    "lat": 31.5346539,
    "lng": -97.1912031
  },
  {
    "name": "Mr Gatti's Pizza",
    "address": "2921 Pat Booker Rd, Universal City, TX 78148, United States",
    "lat": 29.5579215,
    "lng": -98.32334980000002
  },
  {
    "name": "Mr Gatti's Pizza",
    "address": "1510 W Cameron Ave, Rockdale, TX 76567, United States",
    "lat": 30.6473063,
    "lng": -97.02042100000001
  },
  {
    "name": "Mr Gatti's Pizza",
    "address": "5203 McCart Ave Suite 205, Fort Worth, TX 76115, United States",
    "lat": 32.6688089,
    "lng": -97.35414139999999
  },
  {
    "name": "Mr Gatti's Pizza",
    "address": "2931 S State Hwy 16, Fredericksburg, TX 78624, United States",
    "lat": 30.2417105,
    "lng": -98.8995071
  },
  {
    "name": "Mr Gatti's Pizza",
    "address": "1800 Lawrence St, Gainesville, TX 76240, United States",
    "lat": 33.6456276,
    "lng": -97.1357694
  },
  {
    "name": "Mr Gatti's Pizza",
    "address": "2804 N Laurent St, Victoria, TX 77901, United States",
    "lat": 28.8194606,
    "lng": -96.99164309999999
  },
  {
    "name": "Mr Gatti's Pizza",
    "address": "2665 Buffalo Gap Rd, Abilene, TX 79605, United States",
    "lat": 32.4175753,
    "lng": -99.7486268
  },
  {
    "name": "Mr Gatti's Pizza",
    "address": "1406 E Milam St, Mexia, TX 76667, United States",
    "lat": 31.6833852,
    "lng": -96.45659669999999
  },
  {
    "name": "Mr Gatti's Pizza",
    "address": "16607 El Camino Real, Houston, TX 77062, United States",
    "lat": 29.5564545,
    "lng": -95.12062069999999
  },
  {
    "name": "Mr Gatti's Pizza",
    "address": "150 Uvalde Rd, Houston, TX 77015, United States",
    "lat": 29.7994596,
    "lng": -95.18281619999999
  },
  {
    "name": "Mr Gatti's Pizza",
    "address": "1201 Stone St, Kilgore, TX 75662, United States",
    "lat": 32.3936959,
    "lng": -94.8652673
  },
  {
    "name": "Mr Gatti's Pizza",
    "address": "2500 Daniel McCall Dr, Lufkin, TX 75904, United States",
    "lat": 31.2993418,
    "lng": -94.7314137
  },
  {
    "name": "Mr Gatti's Pizza",
    "address": "2001 W Expy 83, Weslaco, TX 78596, United States",
    "lat": 26.1715918,
    "lng": -98.0102838
  },
  {
    "name": "Mr. Gatti's Pizza",
    "address": "1201 E Main St, Allen, TX 75002, United States",
    "lat": 33.1010101,
    "lng": -96.6407213
  },
  {
    "name": "Mr Gatti's Pizza",
    "address": "4100 N 2nd St, McAllen, TX 78504, United States",
    "lat": 26.2398578,
    "lng": -98.2138214
  },
  {
    "name": "Mr Gatti's Pizza",
    "address": "404 W Main St, Uvalde, TX 78801, United States",
    "lat": 29.2081811,
    "lng": -99.79231349999999
  },
  {
    "name": "Mr Gatti's Pizza",
    "address": "614 W Wadley Ave, Midland, TX 79705, United States",
    "lat": 32.029403,
    "lng": -102.0888435
  },
  {
    "name": "Mr Gatti's Pizza",
    "address": "103 Garner Dr, Del Rio, TX 78840, United States",
    "lat": 29.38830369999999,
    "lng": -100.9033541
  },
  {
    "name": "Mr Gatti's Pizza",
    "address": "1202 N Mechanic St, El Campo, TX 77437, United States",
    "lat": 29.2062486,
    "lng": -96.27692809999999
  },
  {
    "name": "Mr Gatti's Pizza",
    "address": "2750 N Grandview Ave, Odessa, TX 79762, United States",
    "lat": 31.8775659,
    "lng": -102.3466668
  },
  {
    "name": "Mr Gatti's Pizza",
    "address": "4412 S Western St, Amarillo, TX 79109, United States",
    "lat": 35.1647478,
    "lng": -101.8850048
  },
  {
    "name": "Mr Gatti's Pizza",
    "address": "8013 Preston Hwy, Louisville, KY 40219, United States",
    "lat": 38.1360544,
    "lng": -85.6845379
  },
  {
    "name": "Mr Gatti's Pizza",
    "address": "10035 Dixie Hwy, Louisville, KY 40272, United States",
    "lat": 38.1086784,
    "lng": -85.8637972
  },
  {
    "name": "Mr Gatti's Pizza",
    "address": "804 Chestnut St, Murray, KY 42071, United States",
    "lat": 36.61753849999999,
    "lng": -88.3094886
  },
  {
    "name": "Mr Gatti's Pizza",
    "address": "803 N Mulberry St, Elizabethtown, KY 42701, United States",
    "lat": 37.7032993,
    "lng": -85.84786419999999
  },
  {
    "name": "Mr Gatti's Pizza",
    "address": "790 E Cumberland Gap Pkwy, Corbin, KY 40701, United States",
    "lat": 36.9586493,
    "lng": -84.0742849
  },
  {
    "name": "Mr Gatti's Pizza",
    "address": "619 S Main St, Leitchfield, KY 42754, United States",
    "lat": 37.4707935,
    "lng": -86.293414
  },
  {
    "name": "Mr Gatti's Pizza",
    "address": "274 Cassady Blvd, Pikeville, KY 41501, United States",
    "lat": 37.5048053,
    "lng": -82.5393385
  },
  {
    "name": "Gatti's Pizza",
    "address": "162 Joe B. Hall Ave, Shepherdsville, KY 40165, United States",
    "lat": 37.9896128,
    "lng": -85.706079
  },
  {
    "name": "Gattitown",
    "address": "2524 Nicholasville Rd, Lexington, KY 40503, United States",
    "lat": 37.9982207,
    "lng": -84.5186916
  },
  {
    "name": "Mr Gatti's Pizza",
    "address": "739 S Hwy 27, Somerset, KY 42503, United States",
    "lat": 37.0836048,
    "lng": -84.6176729
  },
  {
    "name": "Mr Gatti's Pizza",
    "address": "2021 N Mays St #100, Round Rock, TX 78664, United States",
    "lat": 30.5304554,
    "lng": -97.6885408
  },
  {
    "name": "Mr Gatti's Pizza",
    "address": "520 E Main St, Morehead, KY 40351, United States",
    "lat": 38.1875685,
    "lng": -83.4291961
  },
  {
    "name": "Mr Gatti's Pizza",
    "address": "1301 E Broadway St, Campbellsville, KY 42718, United States",
    "lat": 37.3517813,
    "lng": -85.3319602
  },
  {
    "name": "Mr Gatti's Pizza",
    "address": "717 N Bell Blvd, Cedar Park, TX 78613, United States",
    "lat": 30.5183204,
    "lng": -97.82902969999999
  },
  {
    "name": "Mr Gatti's Pizza",
    "address": "584 Bypass Rd, Brandenburg, KY 40108, United States",
    "lat": 37.9807068,
    "lng": -86.1628624
  },
  {
    "name": "Mr Gatti's Pizza",
    "address": "3010 Williams Dr, Georgetown, TX 78626, United States",
    "lat": 30.663265,
    "lng": -97.694043
  },
  {
    "name": "Mr Gatti's Pizza",
    "address": "703 E Lewis and Clark Pkwy, Clarksville, IN 47129, United States",
    "lat": 38.313454,
    "lng": -85.7647965
  },
  {
    "name": "Gattitown",
    "address": "711 12th St, Ashland, KY 41101, United States",
    "lat": 38.47798,
    "lng": -82.6498457
  },
  {
    "name": "Mr Gatti's Pizza",
    "address": "1615 Grand Ave Pkwy, Pflugerville, TX 78660, United States",
    "lat": 30.4556989,
    "lng": -97.65894399999999
  },
  {
    "name": "Mr Gatti's Pizza",
    "address": "3810 Gattis School Rd, Round Rock, TX 78664, United States",
    "lat": 30.497545,
    "lng": -97.61176189999999
  },
  {
    "name": "Mr Gatti's Pizza",
    "address": "326 Ed Schmidt Blvd Ste 110, Hutto, TX 78634, United States",
    "lat": 30.5444911,
    "lng": -97.56090890000002
  },
  {
    "name": "Mr Gatti's Pizza",
    "address": "2102 S 31st St, Temple, TX 76504, United States",
    "lat": 31.0800846,
    "lng": -97.3658279
  },
  {
    "name": "Mr Gatti's Pizza",
    "address": "3720 Far W Blvd Suite 114, Austin, TX 78731, United States",
    "lat": 30.3558692,
    "lng": -97.7573851
  },
  {
    "name": "Mr Gatti's Pizza",
    "address": "316 N Green River Rd, Evansville, IN 47715, United States",
    "lat": 37.980038,
    "lng": -87.4958505
  },
  {
    "name": "Gattitown",
    "address": "1150 N Interstate Hwy 35, Round Rock, TX 78681, United States",
    "lat": 30.5180756,
    "lng": -97.69043789999999
  },
  {
    "name": "Mr Gatti's Pizza",
    "address": "801 E William Cannon Dr, Austin, TX 78745, United States",
    "lat": 30.1900722,
    "lng": -97.7719003
  },
  {
    "name": "Mr Gatti's Pizza",
    "address": "2708 N Main St, Taylor, TX 76574, United States",
    "lat": 30.5915307,
    "lng": -97.4120634
  },
  {
    "name": "Mr Gatti's Pizza",
    "address": "12129 Ranch Rd 620 N #100, Austin, TX 78750, United States",
    "lat": 30.4615937,
    "lng": -97.8162885
  },
  {
    "name": "Mr Gatti's Pizza",
    "address": "2121 W Parmer Ln, Austin, TX 78727, United States",
    "lat": 30.4154594,
    "lng": -97.6970044
  },
  {
    "name": "Mr Gatti's Pizza",
    "address": "1658 11th St, Portsmouth, OH 45662, United States",
    "lat": 38.7381628,
    "lng": -82.9810492
  },
  {
    "name": "Mr Gatti's Pizza",
    "address": "770 S Range Ave, Denham Springs, LA 70726, United States",
    "lat": 30.47508,
    "lng": -90.9560754
  },
  {
    "name": "Mr Gatti's Pizza",
    "address": "5888 Essen Ln, Baton Rouge, LA 70810, United States",
    "lat": 30.3957987,
    "lng": -91.10988789999999
  },
  {
    "name": "Mr Gatti's Pizza",
    "address": "3522 Ryan St, Lake Charles, LA 70605, United States",
    "lat": 30.1934688,
    "lng": -93.2190396
  },
  {
    "name": "Mr Gatti's Pizza",
    "address": "1320 Elton Rd, Jennings, LA 70546, United States",
    "lat": 30.2350129,
    "lng": -92.6629304
  },
  {
    "name": "Mr Gatti's Pizza",
    "address": "828 E Admiral Doyle Dr, New Iberia, LA 70560, United States",
    "lat": 29.9864203,
    "lng": -91.8234064
  },
  {
    "name": "Mr Gatti's Pizza",
    "address": "2218 N Parkerson Ave, Crowley, LA 70526, United States",
    "lat": 30.232146,
    "lng": -92.3825945
  },
  {
    "name": "Mr Gatti's Pizza",
    "address": "2224 W Laurel Ave, Eunice, LA 70535, United States",
    "lat": 30.4965245,
    "lng": -92.4397073
  },
  {
    "name": "Mr Gatti's Pizza",
    "address": "1811 Ruth St, Sulphur, LA 70663, United States",
    "lat": 30.2216751,
    "lng": -93.37673989999999
  },
  {
    "name": "Mr Gatti's Pizza",
    "address": "1615 Grand Ave Pkwy, Pflugerville, TX 78660, United States",
    "lat": 30.4556989,
    "lng": -97.65894399999999
  },
  {
    "name": "Mr Gatti's Pizza",
    "address": "2021 N Mays St #100, Round Rock, TX 78664, United States",
    "lat": 30.5304554,
    "lng": -97.6885408
  },
  {
    "name": "Mr Gatti's Pizza",
    "address": "5201 Bosque Blvd #280, Waco, TX 76710, United States",
    "lat": 31.5346539,
    "lng": -97.1912031
  },
  {
    "name": "Mr Gatti's Pizza",
    "address": "20900 RM 1431 #120, Lago Vista, TX 78645, United States",
    "lat": 30.4816645,
    "lng": -97.97565069999999
  },
  {
    "name": "Mr Gatti's Pizza",
    "address": "3810 Gattis School Rd, Round Rock, TX 78664, United States",
    "lat": 30.497545,
    "lng": -97.61176189999999
  },
  {
    "name": "Mr Gatti's Pizza",
    "address": "3720 Far W Blvd Suite 114, Austin, TX 78731, United States",
    "lat": 30.3558692,
    "lng": -97.7573851
  },
  {
    "name": "Mr Gatti's Pizza",
    "address": "326 Ed Schmidt Blvd Ste 110, Hutto, TX 78634, United States",
    "lat": 30.5444911,
    "lng": -97.56090890000002
  },
  {
    "name": "Mr Gatti's Pizza",
    "address": "3010 Williams Dr, Georgetown, TX 78626, United States",
    "lat": 30.663265,
    "lng": -97.694043
  },
  {
    "name": "Mr Gatti's Pizza",
    "address": "7525 E Hwy 290, Austin, TX 78723, United States",
    "lat": 30.32391609999999,
    "lng": -97.6752394
  },
  {
    "name": "Mr Gatti's Pizza",
    "address": "2102 S 31st St, Temple, TX 76504, United States",
    "lat": 31.0800846,
    "lng": -97.3658279
  },
  {
    "name": "Mr Gatti's Pizza",
    "address": "717 N Bell Blvd, Cedar Park, TX 78613, United States",
    "lat": 30.5183204,
    "lng": -97.82902969999999
  },
  {
    "name": "Gattitown",
    "address": "1150 N Interstate Hwy 35, Round Rock, TX 78681, United States",
    "lat": 30.5180756,
    "lng": -97.69043789999999
  },
  {
    "name": "Mr Gatti's Pizza",
    "address": "2497 E Central Texas Expy, Killeen, TX 76543, United States",
    "lat": 31.0892796,
    "lng": -97.7121581
  },
  {
    "name": "Mr Gatti's Pizza",
    "address": "2708 N Main St, Taylor, TX 76574, United States",
    "lat": 30.5915307,
    "lng": -97.4120634
  },
  {
    "name": "Mr Gatti's Pizza",
    "address": "1504 Aquarena Springs Dr, San Marcos, TX 78666, United States",
    "lat": 29.8922569,
    "lng": -97.9191147
  },
  {
    "name": "Mr Gatti's Pizza",
    "address": "801 E William Cannon Dr, Austin, TX 78745, United States",
    "lat": 30.1900722,
    "lng": -97.7719003
  },
  {
    "name": "Mr Gatti's Pizza",
    "address": "2121 W Parmer Ln, Austin, TX 78727, United States",
    "lat": 30.4154594,
    "lng": -97.6970044
  },
  {
    "name": "Mr. Gatti\u2019s",
    "address": "Crowley, LA 70526, United States",
    "lat": 30.2140928,
    "lng": -92.3745761
  },
  {
    "name": "Mr Gatti's Pizza",
    "address": "703 E Lewis and Clark Pkwy, Clarksville, IN 47129, United States",
    "lat": 38.313454,
    "lng": -85.7647965
  },
  {
    "name": "Mr Gatti's Pizza",
    "address": "620 Indiana 39 Byp S, Martinsville, IN 46151, United States",
    "lat": 39.4212667,
    "lng": -86.43596740000001
  },
  {
    "name": "Mr Gatti's Pizza",
    "address": "316 N Green River Rd, Evansville, IN 47715, United States",
    "lat": 37.980038,
    "lng": -87.4958505
  },
  {
    "name": "Mr Gatti's Pizza",
    "address": "10035 Dixie Hwy, Louisville, KY 40272, United States",
    "lat": 38.1086784,
    "lng": -85.8637972
  },
  {
    "name": "Mr Gatti's Pizza",
    "address": "8013 Preston Hwy, Louisville, KY 40219, United States",
    "lat": 38.1360544,
    "lng": -85.6845379
  },
  {
    "name": "Gatti's Pizza",
    "address": "162 Joe B. Hall Ave, Shepherdsville, KY 40165, United States",
    "lat": 37.9896128,
    "lng": -85.706079
  },
  {
    "name": "Mr Gatti's Pizza",
    "address": "717 N Bell Blvd, Cedar Park, TX 78613, United States",
    "lat": 30.5183204,
    "lng": -97.82902969999999
  },
  {
    "name": "Mr Gatti's Pizza",
    "address": "584 Bypass Rd, Brandenburg, KY 40108, United States",
    "lat": 37.9807068,
    "lng": -86.1628624
  },
  {
    "name": "Mr Gatti's Pizza",
    "address": "191 E South St, Dadeville, AL 36853, United States",
    "lat": 32.8287822,
    "lng": -85.7620981
  },
  {
    "name": "Mr Gatti's Pizza",
    "address": "704 1st Ave, Opelika, AL 36801, United States",
    "lat": 32.6498436,
    "lng": -85.3796457
  },
  {
    "name": "Mr Gatti's Pizza",
    "address": "6903 Maynardville Pike, Knoxville, TN 37918, United States",
    "lat": 36.0716519,
    "lng": -83.9288969
  },
  {
    "name": "Mr Gatti's Pizza",
    "address": "2021 N Mays St #100, Round Rock, TX 78664, United States",
    "lat": 30.5304554,
    "lng": -97.6885408
  },
  {
    "name": "Mr Gatti's Pizza",
    "address": "1616 W Broadway Ave, Maryville, TN 37801, United States",
    "lat": 35.737423,
    "lng": -83.9893221
  },
  {
    "name": "Mr Gatti's Pizza",
    "address": "717 N Bell Blvd, Cedar Park, TX 78613, United States",
    "lat": 30.5183204,
    "lng": -97.82902969999999
  },
  {
    "name": "Mr Gatti's Pizza",
    "address": "1658 11th St, Portsmouth, OH 45662, United States",
    "lat": 38.7381628,
    "lng": -82.9810492
  },
  {
    "name": "Mr Gatti's Pizza",
    "address": "9410 N May Ave, Oklahoma City, OK 73120, United States",
    "lat": 35.5661935,
    "lng": -97.5654349
  },
  {
    "name": "Mr Gatti's Pizza",
    "address": "6301 NW Quannah Parker Trail, Lawton, OK 73505, United States",
    "lat": 34.6323996,
    "lng": -98.4720512
  },
  {
    "name": "Mr Gatti's Pizza",
    "address": "2001 S 1st St, Chickasha, OK 73018, United States",
    "lat": 35.0309444,
    "lng": -97.9311278
  },
  {
    "name": "Mr Gatti's Pizza",
    "address": "3393 N. 81 Hwy, Duncan, OK 73533, United States",
    "lat": 34.5274806,
    "lng": -97.97037449999999
  },
  {
    "name": "Mr Gatti's Pizza",
    "address": "1000 W Shawnee St, Muskogee, OK 74401, United States",
    "lat": 35.7726661,
    "lng": -95.37314909999999
  },
  {
    "name": "Mr Gatti's Pizza",
    "address": "333 N Interstate Dr, Norman, OK 73069, United States",
    "lat": 35.2216038,
    "lng": -97.4811198
  },
  {
    "name": "Mr Gatti's Pizza",
    "address": "2200 W Danforth Rd, Edmond, OK 73003, United States",
    "lat": 35.6655778,
    "lng": -97.51216819999999
  },
  {
    "name": "Mr Gatti's Pizza",
    "address": "2021 N Mays St #100, Round Rock, TX 78664, United States",
    "lat": 30.5304554,
    "lng": -97.6885408
  },
  {
    "name": "Mr Gatti's Pizza",
    "address": "1419 N Country Club Rd, Ada, OK 74820, United States",
    "lat": 34.7889752,
    "lng": -96.65610960000001
  },
  {
    "name": "Mr Gatti's Pizza",
    "address": "717 N Bell Blvd, Cedar Park, TX 78613, United States",
    "lat": 30.5183204,
    "lng": -97.82902969999999
  },
  {
    "name": "Mr Gatti's Pizza",
    "address": "220 OK-97, Sand Springs, OK 74063, United States",
    "lat": 36.1348972,
    "lng": -96.12033939999999
  },
  {
    "name": "Mr Gatti's Pizza",
    "address": "2021 N Mays St #100, Round Rock, TX 78664, United States",
    "lat": 30.5304554,
    "lng": -97.6885408
  },
  {
    "name": "Mr Gatti's Pizza",
    "address": "3810 Gattis School Rd, Round Rock, TX 78664, United States",
    "lat": 30.497545,
    "lng": -97.61176189999999
  },
  {
    "name": "Mr Gatti's Pizza",
    "address": "1615 Grand Ave Pkwy, Pflugerville, TX 78660, United States",
    "lat": 30.4556989,
    "lng": -97.65894399999999
  },
  {
    "name": "Mr Gatti's Pizza",
    "address": "326 Ed Schmidt Blvd Ste 110, Hutto, TX 78634, United States",
    "lat": 30.5444911,
    "lng": -97.56090890000002
  },
  {
    "name": "Mr Gatti's Pizza",
    "address": "717 N Bell Blvd, Cedar Park, TX 78613, United States",
    "lat": 30.5183204,
    "lng": -97.82902969999999
  },
  {
    "name": "Mr Gatti's Pizza",
    "address": "3720 Far W Blvd Suite 114, Austin, TX 78731, United States",
    "lat": 30.3558692,
    "lng": -97.7573851
  },
  {
    "name": "Mr Gatti's Pizza",
    "address": "7525 E Hwy 290, Austin, TX 78723, United States",
    "lat": 30.32391609999999,
    "lng": -97.6752394
  },
  {
    "name": "Gattitown",
    "address": "1150 N Interstate Hwy 35, Round Rock, TX 78681, United States",
    "lat": 30.5180756,
    "lng": -97.69043789999999
  },
  {
    "name": "Mr Gatti's Pizza",
    "address": "3010 Williams Dr, Georgetown, TX 78626, United States",
    "lat": 30.663265,
    "lng": -97.694043
  },
  {
    "name": "Mr Gatti's Pizza",
    "address": "1504 Aquarena Springs Dr, San Marcos, TX 78666, United States",
    "lat": 29.8922569,
    "lng": -97.9191147
  },
  {
    "name": "Mr Gatti's Pizza",
    "address": "12129 Ranch Rd 620 N #100, Austin, TX 78750, United States",
    "lat": 30.4615937,
    "lng": -97.8162885
  },
  {
    "name": "Mr Gatti's Pizza",
    "address": "2497 E Central Texas Expy, Killeen, TX 76543, United States",
    "lat": 31.0892796,
    "lng": -97.7121581
  },
  {
    "name": "Mr Gatti's Pizza",
    "address": "20900 RM 1431 #120, Lago Vista, TX 78645, United States",
    "lat": 30.4816645,
    "lng": -97.97565069999999
  },
  {
    "name": "Mr Gatti's Pizza",
    "address": "2708 N Main St, Taylor, TX 76574, United States",
    "lat": 30.5915307,
    "lng": -97.4120634
  },
  {
    "name": "Mr Gatti's Pizza",
    "address": "2121 W Parmer Ln, Austin, TX 78727, United States",
    "lat": 30.4154594,
    "lng": -97.6970044
  },
  {
    "name": "Mr Gatti's Pizza",
    "address": "9410 N May Ave, Oklahoma City, OK 73120, United States",
    "lat": 35.5661935,
    "lng": -97.5654349
  },
  {
    "name": "Mr Gatti's Pizza",
    "address": "801 E William Cannon Dr, Austin, TX 78745, United States",
    "lat": 30.1900722,
    "lng": -97.7719003
  },
  {
    "name": "Mr Gatti's Pizza",
    "address": "22510 I-35, Kyle, TX 78640, United States",
    "lat": 29.98971239999999,
    "lng": -97.8733701
  },
  {
    "name": "Mr Gatti's Pizza",
    "address": "2931 S State Hwy 16, Fredericksburg, TX 78624, United States",
    "lat": 30.2417105,
    "lng": -98.8995071
  },
  {
    "name": "Mr Gatti's Pizza",
    "address": "6301 NW Quannah Parker Trail, Lawton, OK 73505, United States",
    "lat": 34.6323996,
    "lng": -98.4720512
  },
  {
    "name": "Mr Gatti's Pizza",
    "address": "1201 Stone St, Kilgore, TX 75662, United States",
    "lat": 32.3936959,
    "lng": -94.8652673
  },
  {
    "name": "Mr Gatti's Pizza",
    "address": "1000 W Shawnee St, Muskogee, OK 74401, United States",
    "lat": 35.7726661,
    "lng": -95.37314909999999
  },
  {
    "name": "Mr Gatti's Pizza",
    "address": "804 Chestnut St, Murray, KY 42071, United States",
    "lat": 36.61753849999999,
    "lng": -88.3094886
  },
  {
    "name": "Gattis Tool Company",
    "address": "303 US-65, Harrison, AR 72601, United States",
    "lat": 36.2358724,
    "lng": -93.0892587
  },
  {
    "name": "Gattis Excavating Inc",
    "address": "10800 Baseline Rd, Little Rock, AR 72209, United States",
    "lat": 34.6712932,
    "lng": -92.3971323
  },
  {
    "name": "Mr Gatti's Pizza",
    "address": "2500 Daniel McCall Dr, Lufkin, TX 75904, United States",
    "lat": 31.2993418,
    "lng": -94.7314137
  },
  {
    "name": "Gattis Logan County Library",
    "address": "100 E Academy St, Paris, AR 72855, United States",
    "lat": 35.2895465,
    "lng": -93.72885529999999
  },
  {
    "name": "Mr Gatti's Pizza",
    "address": "2921 Pat Booker Rd, Universal City, TX 78148, United States",
    "lat": 29.5579215,
    "lng": -98.32334980000002
  },
  {
    "name": "Mr Gatti's Pizza",
    "address": "1510 W Cameron Ave, Rockdale, TX 76567, United States",
    "lat": 30.6473063,
    "lng": -97.02042100000001
  },
  {
    "name": "Gattis Creek",
    "address": "Gattis Creek, Arkansas 72459, USA",
    "lat": 36.2145126,
    "lng": -91.2817986
  },
  {
    "name": "Gattis Tammy",
    "address": "415 N McKinley St Suite 250F, Little Rock, AR 72205, United States",
    "lat": 34.7556052,
    "lng": -92.34437439999999
  },
  {
    "name": "Gattitown",
    "address": "9900 S I-35 Frontage Rd, Austin, TX 78748, United States",
    "lat": 30.1567633,
    "lng": -97.7927907
  },
  {
    "name": "Mr Gatti's Pizza",
    "address": "12110 Menchaca Rd, Austin, TX 78748, United States",
    "lat": 30.1426396,
    "lng": -97.83365959999999
  },
  {
    "name": "Robin Gattis, MS",
    "address": "3645 Heidi Ct, Conway, AR 72034, United States",
    "lat": 35.1056005,
    "lng": -92.4903051
  },
  {
    "name": "Cicis Pizza",
    "address": "3604 W Walnut St Ste 500, Rogers, AR 72756, United States",
    "lat": 36.33406730000001,
    "lng": -94.16894959999999
  },
  {
    "name": "Mr Gatti's Pizza",
    "address": "2021 N Mays St #100, Round Rock, TX 78664, United States",
    "lat": 30.5304554,
    "lng": -97.6885408
  },
  {
    "name": "Mr Gatti's Pizza",
    "address": "3720 Far W Blvd Suite 114, Austin, TX 78731, United States",
    "lat": 30.3558692,
    "lng": -97.7573851
  },
  {
    "name": "Mr Gatti's Pizza",
    "address": "801 E William Cannon Dr, Austin, TX 78745, United States",
    "lat": 30.1900722,
    "lng": -97.7719003
  },
  {
    "name": "Mr Gatti's Pizza",
    "address": "1615 Grand Ave Pkwy, Pflugerville, TX 78660, United States",
    "lat": 30.4556989,
    "lng": -97.65894399999999
  },
  {
    "name": "Mr Gatti's Pizza",
    "address": "2102 S 31st St, Temple, TX 76504, United States",
    "lat": 31.0800846,
    "lng": -97.3658279
  },
  {
    "name": "Mr Gatti's Pizza",
    "address": "326 Ed Schmidt Blvd Ste 110, Hutto, TX 78634, United States",
    "lat": 30.5444911,
    "lng": -97.56090890000002
  },
  {
    "name": "Mr Gatti's Pizza",
    "address": "717 N Bell Blvd, Cedar Park, TX 78613, United States",
    "lat": 30.5183204,
    "lng": -97.82902969999999
  },
  {
    "name": "Mr Gatti's Pizza",
    "address": "3810 Gattis School Rd, Round Rock, TX 78664, United States",
    "lat": 30.497545,
    "lng": -97.61176189999999
  },
  {
    "name": "Mr Gatti's Pizza",
    "address": "7525 E Hwy 290, Austin, TX 78723, United States",
    "lat": 30.32391609999999,
    "lng": -97.6752394
  },
  {
    "name": "Mr Gatti's Pizza",
    "address": "3010 Williams Dr, Georgetown, TX 78626, United States",
    "lat": 30.663265,
    "lng": -97.694043
  },
  {
    "name": "Mr Gatti's Pizza",
    "address": "2497 E Central Texas Expy, Killeen, TX 76543, United States",
    "lat": 31.0892796,
    "lng": -97.7121581
  },
  {
    "name": "Mr Gatti's Pizza",
    "address": "20900 RM 1431 #120, Lago Vista, TX 78645, United States",
    "lat": 30.4816645,
    "lng": -97.97565069999999
  },
  {
    "name": "Mr Gatti's Pizza",
    "address": "1504 Aquarena Springs Dr, San Marcos, TX 78666, United States",
    "lat": 29.8922569,
    "lng": -97.9191147
  },
  {
    "name": "Mr Gatti's Pizza",
    "address": "5201 Bosque Blvd #280, Waco, TX 76710, United States",
    "lat": 31.5346539,
    "lng": -97.1912031
  },
  {
    "name": "Gattitown",
    "address": "1150 N Interstate Hwy 35, Round Rock, TX 78681, United States",
    "lat": 30.5180756,
    "lng": -97.69043789999999
  },
  {
    "name": "Mr Gatti's Pizza",
    "address": "12129 Ranch Rd 620 N #100, Austin, TX 78750, United States",
    "lat": 30.4615937,
    "lng": -97.8162885
  },
  {
    "name": "Mr Gatti's Pizza",
    "address": "2708 N Main St, Taylor, TX 76574, United States",
    "lat": 30.5915307,
    "lng": -97.4120634
  },
  {
    "name": "Mr Gatti's Pizza",
    "address": "2921 Pat Booker Rd, Universal City, TX 78148, United States",
    "lat": 29.5579215,
    "lng": -98.32334980000002
  },
  {
    "name": "Mr Gatti's Pizza",
    "address": "2931 S State Hwy 16, Fredericksburg, TX 78624, United States",
    "lat": 30.2417105,
    "lng": -98.8995071
  },
  {
    "name": "Mr Gatti's Pizza",
    "address": "5203 McCart Ave Suite 205, Fort Worth, TX 76115, United States",
    "lat": 32.6688089,
    "lng": -97.35414139999999
  },
  {
    "name": "Mr Gatti's Pizza",
    "address": "9410 N May Ave, Oklahoma City, OK 73120, United States",
    "lat": 35.5661935,
    "lng": -97.5654349
  },
  {
    "name": "Mr Gatti's Pizza",
    "address": "2121 W Parmer Ln, Austin, TX 78727, United States",
    "lat": 30.4154594,
    "lng": -97.6970044
  },
  {
    "name": "Mr Gatti's Pizza",
    "address": "1820 Coit Rd #110, Plano, TX 75075, United States",
    "lat": 33.026306,
    "lng": -96.7685025
  },
  {
    "name": "Mr Gatti's Pizza",
    "address": "6301 NW Quannah Parker Trail, Lawton, OK 73505, United States",
    "lat": 34.6323996,
    "lng": -98.4720512
  },
  {
    "name": "Mr Gatti's Pizza",
    "address": "103 Garner Dr, Del Rio, TX 78840, United States",
    "lat": 29.38830369999999,
    "lng": -100.9033541
  },
  {
    "name": "Mr Gatti's Pizza",
    "address": "22510 I-35, Kyle, TX 78640, United States",
    "lat": 29.98971239999999,
    "lng": -97.8733701
  },
  {
    "name": "Mr Gatti's Pizza",
    "address": "12110 Menchaca Rd, Austin, TX 78748, United States",
    "lat": 30.1426396,
    "lng": -97.83365959999999
  },
  {
    "name": "Mr Gatti's Pizza",
    "address": "1510 W Cameron Ave, Rockdale, TX 76567, United States",
    "lat": 30.6473063,
    "lng": -97.02042100000001
  },
  {
    "name": "Mr Gatti's Pizza",
    "address": "3501 RM 1431, Kingsland, TX 78639, United States",
    "lat": 30.6743402,
    "lng": -98.4573884
  },
  {
    "name": "Mr Gatti's Pizza",
    "address": "4412 S Western St, Amarillo, TX 79109, United States",
    "lat": 35.1647478,
    "lng": -101.8850048
  },
  {
    "name": "Mr Gatti's Pizza",
    "address": "2218 N Parkerson Ave, Crowley, LA 70526, United States",
    "lat": 30.232146,
    "lng": -92.3825945
  },
  {
    "name": "Gattitown",
    "address": "9900 S I-35 Frontage Rd, Austin, TX 78748, United States",
    "lat": 30.1567633,
    "lng": -97.7927907
  },
  {
    "name": "Mr Gatti's Pizza",
    "address": "2001 W Expy 83, Weslaco, TX 78596, United States",
    "lat": 26.1715918,
    "lng": -98.0102838
  },
  {
    "name": "Mr Gatti's Pizza",
    "address": "220 OK-97, Sand Springs, OK 74063, United States",
    "lat": 36.1348972,
    "lng": -96.12033939999999
  },
  {
    "name": "Mr Gatti's Pizza",
    "address": "620 Indiana 39 Byp S, Martinsville, IN 46151, United States",
    "lat": 39.4212667,
    "lng": -86.43596740000001
  },
  {
    "name": "Springfield Incredible Pizza Company",
    "address": "2850 S Campbell Ave, Springfield, MO 65807, United States",
    "lat": 37.1622396,
    "lng": -93.2941815
  },
  {
    "name": "Godfather's Pizza",
    "address": "1832 S Ingram Mill Rd, Springfield, MO 65804, United States",
    "lat": 37.179514,
    "lng": -93.2254875
  }
]