[
  {
    "name": "Mr Gatti's Pizza",
    "address": "2021 N Mays St #100, Round Rock, TX 78664, United States",
    "lat": 30.5304554,
    "lng": -97.6885408
  },
  {
    "name": "Mr Gatti's Pizza",
    "address": "717 N Bell Blvd, Cedar Park, TX 78613, United States",
    "lat": 30.5183204,
    "lng": -97.82902969999999
  },
  {
    "name": "Mr Gatti's Pizza",
    "address": "3010 Williams Dr, Georgetown, TX 78626, United States",
    "lat": 30.663265,
    "lng": -97.694043
  },
  {
    "name": "Gattitown",
    "address": "1150 N Interstate Hwy 35, Round Rock, TX 78681, United States",
    "lat": 30.5180756,
    "lng": -97.69043789999999
  },
  {
    "name": "Mr Gatti's Pizza",
    "address": "326 Ed Schmidt Blvd Ste 110, Hutto, TX 78634, United States",
    "lat": 30.5444911,
    "lng": -97.56090890000002
  },
  {
    "name": "Mr Gatti's Pizza",
    "address": "20900 RM 1431 #120, Lago Vista, TX 78645, United States",
    "lat": 30.4816645,
    "lng": -97.97565069999999
  },
  {
    "name": "Mr Gatti's Pizza",
    "address": "1615 Grand Ave Pkwy, Pflugerville, TX 78660, United States",
    "lat": 30.4556989,
    "lng": -97.65894399999999
  },
  {
    "name": "Mr Gatti's Pizza",
    "address": "12129 Ranch Rd 620 N #100, Austin, TX 78750, United States",
    "lat": 30.4615937,
    "lng": -97.8162885
  },
  {
    "name": "Mr Gatti's Pizza",
    "address": "2102 S 31st St, Temple, TX 76504, United States",
    "lat": 31.0800846,
    "lng": -97.3658279
  },
  {
    "name": "Mr Gatti's Pizza",
    "address": "2708 N Main St, Taylor, TX 76574, United States",
    "lat": 30.5915307,
    "lng": -97.4120634
  },
  {
    "name": "Mr Gatti's Pizza",
    "address": "3810 Gattis School Rd, Round Rock, TX 78664, United States",
    "lat": 30.497545,
    "lng": -97.61176189999999
  },
  {
    "name": "Mr Gatti's Pizza",
    "address": "2121 W Parmer Ln, Austin, TX 78727, United States",
    "lat": 30.4154594,
    "lng": -97.6970044
  },
  {
    "name": "Mr Gatti's Pizza",
    "address": "2121 TX-16, Graham, TX 76450, United States",
    "lat": 33.0822174,
    "lng": -98.5806856
  },
  {
    "name": "Mr Gatti's Pizza",
    "address": "3720 Far W Blvd Suite 114, Austin, TX 78731, United States",
    "lat": 30.3558692,
    "lng": -97.7573851
  },
  {
    "name": "Mr Gatti's Pizza",
    "address": "2497 E Central Texas Expy, Killeen, TX 76543, United States",
    "lat": 31.0892796,
    "lng": -97.7121581
  },
  {
    "name": "Mr Gatti's Pizza",
    "address": "801 E William Cannon Dr, Austin, TX 78745, United States",
    "lat": 30.1900722,
    "lng": -97.7719003
  },
  {
    "name": "Mr Gatti's Pizza",
    "address": "3501 RM 1431, Kingsland, TX 78639, United States",
    "lat": 30.6743402,
    "lng": -98.4573884
  },
  {
    "name": "Mr Gatti's Pizza",
    "address": "7525 E Hwy 290, Austin, TX 78723, United States",
    "lat": 30.32391609999999,
    "lng": -97.6752394
  },
  {
    "name": "Mr Gatti's Pizza",
    "address": "1504 Aquarena Springs Dr, San Marcos, TX 78666, United States",
    "lat": 29.8922569,
    "lng": -97.9191147
  },
  {
    "name": "Mr Gatti's Pizza",
    "address": "22510 I-35, Kyle, TX 78640, United States",
    "lat": 29.98971239999999,
    "lng": -97.8733701
  },
  {
    "name": "Mr Gatti's Pizza",
    "address": "12110 Menchaca Rd, Austin, TX 78748, United States",
    "lat": 30.1426396,
    "lng": -97.83365959999999
  },
  {
    "name": "Mr Gatti's Pizza",
    "address": "2765 W Washington St, Stephenville, TX 76401, United States",
    "lat": 32.2073958,
    "lng": -98.23778709999999
  },
  {
    "name": "Gattitown",
    "address": "9900 S I-35 Frontage Rd, Austin, TX 78748, United States",
    "lat": 30.1567633,
    "lng": -97.7927907
  },
  {
    "name": "Mr Gatti's Pizza",
    "address": "1820 Coit Rd #110, Plano, TX 75075, United States",
    "lat": 33.026306,
    "lng": -96.7685025
  },
  {
    "name": "Mr Gatti's Pizza",
    "address": "2921 Pat Booker Rd, Universal City, TX 78148, United States",
    "lat": 29.5579215,
    "lng": -98.32334980000002
  },
  {
    "name": "Mr Gatti's Pizza",
    "address": "5201 Bosque Blvd #280, Waco, TX 76710, United States",
    "lat": 31.5346539,
    "lng": -97.1912031
  },
  {
    "name": "Mr Gatti's Pizza",
    "address": "1510 W Cameron Ave, Rockdale, TX 76567, United States",
    "lat": 30.6473063,
    "lng": -97.02042100000001
  },
  {
    "name": "Mr Gatti's Pizza",
    "address": "5203 McCart Ave Suite 205, Fort Worth, TX 76115, United States",
    "lat": 32.6688089,
    "lng": -97.35414139999999
  },
  {
    "name": "Mr Gatti's Pizza",
    "address": "2931 S State Hwy 16, Fredericksburg, TX 78624, United States",
    "lat": 30.2417105,
    "lng": -98.8995071
  },
  {
    "name": "Mr Gatti's Pizza",
    "address": "1800 Lawrence St, Gainesville, TX 76240, United States",
    "lat": 33.6456276,
    "lng": -97.1357694
  },
  {
    "name": "Mr Gatti's Pizza",
    "address": "2804 N Laurent St, Victoria, TX 77901, United States",
    "lat": 28.8194606,
    "lng": -96.99164309999999
  },
  {
    "name": "Mr Gatti's Pizza",
    "address": "2665 Buffalo Gap Rd, Abilene, TX 79605, United States",
    "lat": 32.4175753,
    "lng": -99.7486268
  },
  {
    "name": "Mr Gatti's Pizza",
    "address": "1406 E Milam St, Mexia, TX 76667, United States",
    "lat": 31.6833852,
    "lng": -96.45659669999999
  },
  {
    "name": "Mr Gatti's Pizza",
    "address": "16607 El Camino Real, Houston, TX 77062, United States",
    "lat": 29.5564545,
    "lng": -95.12062069999999
  },
  {
    "name": "Mr Gatti's Pizza",
    "address": "150 Uvalde Rd, Houston, TX 77015, United States",
    "lat": 29.7994596,
    "lng": -95.18281619999999
  },
  {
    "name": "Mr Gatti's Pizza",
    "address": "1201 Stone St, Kilgore, TX 75662, United States",
    "lat": 32.3936959,
    "lng": -94.8652673
  },
  {
    "name": "Mr Gatti's Pizza",
    "address": "2500 Daniel McCall Dr, Lufkin, TX 75904, United States",
    "lat": 31.2993418,
    "lng": -94.7314137
  },
  {
    "name": "Mr Gatti's Pizza",
    "address": "2001 W Expy 83, Weslaco, TX 78596, United States",
    "lat": 26.1715918,
    "lng": -98.0102838
  },
  {
    "name": "Mr. Gatti's Pizza",
    "address": "1201 E Main St, Allen, TX 75002, United States",
    "lat": 33.1010101,
    "lng": -96.6407213
  },
  {
    "name": "Mr Gatti's Pizza",
    "address": "4100 N 2nd St, McAllen, TX 78504, United States",
    "lat": 26.2398578,
    "lng": -98.2138214
  },
  {
    "name": "Mr Gatti's Pizza",
    "address": "103 Garner Dr, Del Rio, TX 78840, United States",
    "lat": 29.38830369999999,
    "lng": -100.9033541
  },
  {
    "name": "Mr Gatti's Pizza",
    "address": "614 W Wadley Ave, Midland, TX 79705, United States",
    "lat": 32.029403,
    "lng": -102.0888435
  },
  {
    "name": "Mr Gatti's Pizza",
    "address": "4412 S Western St, Amarillo, TX 79109, United States",
    "lat": 35.1647478,
    "lng": -101.8850048
  },
  {
    "name": "Mr Gatti's Pizza",
    "address": "2750 N Grandview Ave, Odessa, TX 79762, United States",
    "lat": 31.8775659,
    "lng": -102.3466668
  },
  {
    "name": "Mr Gatti's Pizza",
    "address": "404 W Main St, Uvalde, TX 78801, United States",
    "lat": 29.2081811,
    "lng": -99.79231349999999
  },
  {
    "name": "Mr Gatti's Pizza",
    "address": "1202 N Mechanic St, El Campo, TX 77437, United States",
    "lat": 29.2062486,
    "lng": -96.27692809999999
  }
]